{"type":"FeatureCollection","features":[{"geometry":{"coordinates":[121.5044059708496,31.28487045142942],"type":"Point"},"properties":{"Doc":928.0,"NAME":"上海市","UserID":0},"type":"Feature"},{"geometry":{"coordinates":[109.6327287193096,19.16391362889343],"type":"Point"},"properties":{"Doc":158.0,"NAME":"海南省","UserID":0},"type":"Feature"},{"geometry":{"coordinates":[108.9983880865404,23.91983620297662],"type":"Point"},"properties":{"Doc":421.0,"NAME":"广西壮族自治区","UserID":0},"type":"Feature"},{"geometry":{"coordinates":[113.3335357586593,22.89735871260336],"type":"Point"},"properties":{"Doc":1532.0,"NAME":"广东省","UserID":0},"type":"Feature"},{"geometry":{"coordinates":[101.3998310959442,25.25151849452669],"type":"Point"},"properties":{"Doc":102.0,"NAME":"云南省","UserID":0},"type":"Feature"},{"geometry":{"coordinates":[106.6583405427361,26.94627502631538],"type":"Point"},"properties":{"Doc":144.0,"NAME":"贵州省","UserID":0},"type":"Feature"},{"geometry":{"coordinates":[118.0356455463913,25.96583884374255],"type":"Point"},"properties":{"Doc":991.0,"NAME":"福建省","UserID":0},"type":"Feature"},{"geometry":{"coordinates":[111.3911982158672,27.41944081177185],"type":"Point"},"properties":{"Doc":585.0,"NAME":"湖南省","UserID":0},"type":"Feature"},{"geometry":{"coordinates":[115.4933075932706,27.31850495022136],"type":"Point"},"properties":{"Doc":558.0,"NAME":"江西省","UserID":0},"type":"Feature"},{"geometry":{"coordinates":[119.7793470765586,29.19485932488373],"type":"Point"},"properties":{"Doc":1663.0,"NAME":"浙江省","UserID":0},"type":"Feature"},{"geometry":{"coordinates":[107.8828694037459,30.20497505151578],"type":"Point"},"properties":{"Doc":467.0,"NAME":"重庆市","UserID":0},"type":"Feature"},{"geometry":{"coordinates":[102.2978463860048,30.26774416540636],"type":"Point"},"properties":{"Doc":1072.0,"NAME":"四川省","UserID":0},"type":"Feature"},{"geometry":{"coordinates":[117.1546433931089,32.06238513713845],"type":"Point"},"properties":{"Doc":859.0,"NAME":"安徽省","UserID":0},"type":"Feature"},{"geometry":{"coordinates":[119.6015430131833,32.97143503398085],"type":"Point"},"properties":{"Doc":1443.0,"NAME":"江苏省","UserID":0},"type":"Feature"},{"geometry":{"coordinates":[105.9864025975328,37.34098692289872],"type":"Point"},"properties":{"Doc":138.0,"NAME":"宁夏回族自治区","UserID":0},"type":"Feature"},{"geometry":{"coordinates":[96.10665566073463,35.49679304156107],"type":"Point"},"properties":{"Doc":239.0,"NAME":"青海省","UserID":0},"type":"Feature"},{"geometry":{"coordinates":[109.5512337497318,35.74196764346337],"type":"Point"},"properties":{"Doc":984.0,"NAME":"陕西省","UserID":0},"type":"Feature"},{"geometry":{"coordinates":[113.0927566449884,33.91291871101355],"type":"Point"},"properties":{"Doc":731.0,"NAME":"河南省","UserID":0},"type":"Feature"},{"geometry":{"coordinates":[118.0396970957752,36.35254641423292],"type":"Point"},"properties":{"Doc":1129.0,"NAME":"山东省","UserID":0},"type":"Feature"},{"geometry":{"coordinates":[102.2793537085588,37.87018530950029],"type":"Point"},"properties":{"Doc":237.0,"NAME":"甘肃省","UserID":0},"type":"Feature"},{"geometry":{"coordinates":[112.3605183482799,37.73078359404435],"type":"Point"},"properties":{"Doc":695.0,"NAME":"山西省","UserID":0},"type":"Feature"},{"geometry":{"coordinates":[116.6438359300831,40.25651270647128],"type":"Point"},"properties":{"Doc":1029.0,"NAME":"北京市","UserID":0},"type":"Feature"},{"geometry":{"coordinates":[117.3416573449076,39.40979267259493],"type":"Point"},"properties":{"Doc":684.0,"NAME":"天津市","UserID":0},"type":"Feature"},{"geometry":{"coordinates":[115.6515076825036,39.41000373798546],"type":"Point"},"properties":{"Doc":606.0,"NAME":"河北省","UserID":0},"type":"Feature"},{"geometry":{"coordinates":[122.4492988398080,41.14972250825791],"type":"Point"},"properties":{"Doc":1382.0,"NAME":"辽宁省","UserID":0},"type":"Feature"},{"geometry":{"coordinates":[126.1698515872814,43.64642245163302],"type":"Point"},"properties":{"Doc":696.0,"NAME":"吉林省","UserID":0},"type":"Feature"},{"geometry":{"coordinates":[119.0295363343774,45.93776539783374],"type":"Point"},"properties":{"Doc":102.0,"NAME":"内蒙古自治区","UserID":0},"type":"Feature"},{"geometry":{"coordinates":[127.5998392445784,48.74709747775353],"type":"Point"},"properties":{"Doc":581.0,"NAME":"黑龙江省","UserID":0},"type":"Feature"},{"geometry":{"coordinates":[88.15188149778984,42.19209148986345],"type":"Point"},"properties":{"Doc":386.0,"NAME":"新疆维吾尔自治区","UserID":0},"type":"Feature"}]}